City_ID,City,Lat,Lng,Max Temp,Humidity,Cloudiness,Wind Speed,Country,Date
0,newman,37.3138,-121.0208,287.28,88,100,3.58,US,1708212339
1,carnarvon,-24.8667,113.6333,303.01,34,1,5.39,AU,1708212340
2,lebu,-37.6167,-73.65,288.06,77,0,11.17,CL,1708212341
3,puerto ayora,-0.7393,-90.3518,297.9,100,75,2.24,EC,1708212341
4,grytviken,-54.2811,-36.5092,278.72,78,81,1.32,GS,1708212342
5,adamstown,-25.066,-130.1015,297.79,81,99,5.53,PN,1708212343
6,beykonak,36.3257,30.303,287.0,73,15,2.17,TR,1708212343
7,namibe,-15.1961,12.1522,297.9,85,93,0.75,AO,1708212344
8,port-aux-francais,-49.35,70.2167,279.96,87,100,17.54,TF,1708212344
9,antsiranana,-12.2787,49.2917,300.11,84,100,5.96,MG,1708212345
10,pamandzi,-12.7967,45.2794,301.03,89,0,1.54,YT,1708212345
11,isafjordur,66.0755,-23.124,275.92,90,100,3.23,IS,1708212346
12,antonio enes,-16.2325,39.9086,300.07,85,48,2.91,MZ,1708212347
13,blackmans bay,-43.0167,147.3167,294.55,50,9,0.89,AU,1708212347
14,invercargill,-46.4,168.35,294.27,61,99,4.47,NZ,1708212348
15,mezhdurechenskiy,59.6,65.9333,245.64,100,91,1.6,RU,1708212348
16,bethel,41.3712,-73.414,272.6,61,100,4.12,US,1708212293
17,bredasdorp,-34.5322,20.0403,289.85,70,34,2.55,ZA,1708212349
18,bilibino,68.0546,166.4372,246.88,91,78,1.22,RU,1708212350
19,zaysan,47.4667,84.8667,243.07,90,78,1.06,KZ,1708212351
20,oamaru,-45.0784,170.9801,294.33,57,10,5.66,NZ,1708212352
21,tepelene,40.2958,20.0192,281.55,79,0,1.08,AL,1708212352
22,chengdu,30.6667,104.0667,284.09,76,40,2.0,CN,1708212353
23,lompoc,34.6391,-120.4579,290.25,64,100,4.12,US,1708212248
24,quellon,-43.1167,-73.6167,287.55,73,67,4.38,CL,1708212354
25,hadibu,12.65,54.0333,297.11,61,56,2.25,YE,1708212354
26,new norfolk,-42.7826,147.0587,295.21,52,10,2.67,AU,1708212355
27,crane,31.3974,-102.3501,280.47,31,23,5.93,US,1708212355
28,hithadhoo,-0.6,73.0833,299.79,87,100,8.23,MV,1708212356
29,hawaiian paradise park,19.5933,-154.9731,296.5,71,75,6.69,US,1708212356
30,cill airne,52.05,-9.5167,284.69,94,100,2.0,IE,1708212357
31,puerto natales,-51.7236,-72.4875,284.61,72,99,5.1,CL,1708212358
32,waitangi,-43.9535,-176.5597,289.67,93,100,6.5,NZ,1708212196
33,port mathurin,-19.6833,63.4167,299.72,73,12,8.45,MU,1708212359
34,wailua homesteads,22.0669,-159.378,297.39,48,0,7.72,US,1708212359
35,racine,42.7495,-88.0751,272.03,60,22,5.36,US,1708212360
36,san antonio de pale,-1.4014,5.6325,301.68,75,71,1.6,GQ,1708212361
37,'alaqahdari dishu,30.4374,63.313,293.19,34,98,2.49,AF,1708212361
38,afaahiti,-17.75,-149.2833,304.08,81,100,9.65,PF,1708212198
39,cabo san lucas,22.8909,-109.9124,300.16,48,0,4.02,MX,1708212362
40,tazacorte,28.629,-17.9293,292.69,73,75,5.66,ES,1708212363
41,margaret river,-33.95,115.0667,291.15,77,97,3.75,AU,1708212273
42,tinajo,29.0788,-13.7081,291.64,77,20,11.32,ES,1708212364
43,albany,42.6001,-73.9662,268.91,61,58,0.89,US,1708212365
44,i-n-salah,27.1935,2.4607,291.01,37,8,6.02,DZ,1708212365
45,ribeira grande,38.5167,-28.7,289.69,94,100,1.79,PT,1708212366
46,qaqortoq,60.7167,-46.0333,272.32,97,100,1.4,GL,1708212367
47,cascais,38.6979,-9.4215,288.99,84,96,6.26,PT,1708212367
48,jammalamadugu,14.8333,78.4,293.06,70,5,2.13,IN,1708212368
49,punta arenas,-53.15,-70.9167,285.21,71,75,10.29,CL,1708212202
50,pitimbu,-7.4706,-34.8086,301.48,79,11,3.98,BR,1708212369
51,iskateley,67.6803,53.1512,259.83,93,100,12.52,RU,1708212369
52,masterton,-40.9597,175.6575,296.0,45,78,2.98,NZ,1708212370
53,avarua,-21.2078,-159.775,301.18,61,40,3.09,CK,1708212370
54,evergreen,39.6333,-105.3172,274.58,60,2,0.89,US,1708212371
55,coquimbo,-29.9533,-71.3436,292.0,82,20,4.63,CL,1708212325
56,strelka,58.0728,93.0344,243.0,100,99,0.53,RU,1708212372
57,qarauyl,48.9451,79.255,242.65,94,10,1.71,KZ,1708212373
58,formosa do rio preto,-11.0483,-45.1931,297.01,88,99,0.44,BR,1708212373
59,pathein,16.7833,94.7333,293.59,64,0,3.42,MM,1708212374
60,geraldton,-28.7667,114.6,307.38,14,46,4.12,AU,1708212374
61,el calafate,-50.3408,-72.2768,285.46,62,60,4.51,AR,1708212375
62,berezovyy,51.6667,135.7,257.08,92,100,0.89,RU,1708212376
63,salekhard,66.53,66.6019,241.52,100,59,1.87,RU,1708212376
64,hammerfest,70.6634,23.6821,271.4,86,75,2.57,NO,1708212377
65,tiksi,71.6872,128.8694,235.01,100,79,2.2,RU,1708212377
66,pingzhuang,42.0372,119.2889,275.26,80,60,2.73,CN,1708212378
67,semera,11.501,41.201,297.26,68,7,7.77,ET,1708212379
68,plastun,44.7561,136.2939,272.63,98,100,2.06,RU,1708212379
69,bodo,67.28,14.405,273.17,74,75,2.06,NO,1708212380
70,talnakh,69.4865,88.3972,251.04,96,100,3.86,RU,1708212380
71,callao,-12.0667,-77.15,298.31,73,40,5.14,PE,1708212127
72,hami,42.8,93.45,257.78,59,3,2.44,CN,1708212381
73,severo-yeniseyskiy,60.3725,93.0408,236.06,100,100,1.16,RU,1708212382
74,nadym,65.5333,72.5167,247.05,85,41,4.91,RU,1708212382
75,stanley,54.868,-1.6985,284.1,93,20,3.09,GB,1708212383
76,kerikeri,-35.2268,173.9474,296.3,51,100,2.51,NZ,1708212384
77,itaueira,-7.6033,-43.0256,301.03,60,76,1.08,BR,1708212384
78,aasiaat,68.7098,-52.8699,256.74,99,61,0.37,GL,1708212385
79,calipatria,33.1256,-115.5142,299.42,32,100,0.56,US,1708212385
80,tazovsky,67.4667,78.7,246.14,93,96,3.44,RU,1708212386
81,sofo-birnin-gwari,11.0154,6.7804,295.04,18,75,3.99,NG,1708212386
82,nikolayevsk-on-amure,53.1406,140.73,260.08,94,100,1.33,RU,1708212387
83,saint-pierre,-21.3393,55.4781,299.97,69,0,10.29,RE,1708212387
84,howrah,22.5892,88.3103,291.15,94,0,0.0,IN,1708212388
85,iqaluit,63.7506,-68.5145,243.0,61,0,6.71,CA,1708212389
86,jamestown,42.097,-79.2353,268.92,82,100,3.13,US,1708212390
87,atafu village,-8.5421,-172.5159,301.87,76,100,9.52,TK,1708212390
88,bubaque,11.2833,-15.8333,299.6,76,1,4.85,GW,1708212391
89,papatowai,-46.5619,169.4708,292.62,48,100,3.36,NZ,1708212391
90,westport,41.1415,-73.3579,273.61,59,75,4.02,US,1708212209
91,edinburgh of the seven seas,-37.0676,-12.3116,288.8,75,100,8.32,SH,1708212393
92,longyearbyen,78.2186,15.6401,259.06,66,40,10.29,SJ,1708212393
93,nadi,-17.8,177.4167,303.15,70,40,3.6,FJ,1708212394
94,forde,61.4522,5.8572,274.15,74,51,1.54,NO,1708212395
95,fort st. john,56.2499,-120.8529,279.09,24,20,2.57,CA,1708212163
96,tolanaro,-25.0319,46.9987,297.19,94,75,6.69,MG,1708212396
97,ishigaki,24.3448,124.1572,295.22,78,75,5.14,JP,1708212396
98,fale old settlement,-9.3852,-171.2468,300.09,89,100,11.09,TK,1708212397
99,katra,32.9833,74.95,287.91,25,100,2.73,IN,1708212398
100,west island,-12.1568,96.8225,300.14,83,75,2.57,CC,1708212398
101,filingue,14.3521,3.3168,296.1,14,0,4.23,NE,1708212399
102,tommot,58.9564,126.2925,242.89,93,100,4.41,RU,1708212400
103,pajok,3.8651,32.4821,301.73,34,89,1.17,SS,1708212402
104,juneau,58.3019,-134.4197,279.87,100,100,0.0,US,1708212214
105,"laikit, laikit ii (dimembe)",1.4792,124.9735,296.62,88,20,1.03,ID,1708212403
106,enewetak,11.3474,162.3373,299.75,80,16,8.9,MH,1708212403
107,luderitz,-26.6481,15.1594,289.32,75,0,5.53,NA,1708212404
108,la trinite,14.7376,-60.9629,299.18,73,75,2.06,MQ,1708212404
109,ust-nera,64.5667,143.2,229.28,97,36,0.76,RU,1708212405
110,slave lake,55.2834,-114.769,272.14,40,0,1.03,CA,1708212406
111,hamilton,39.1834,-84.5333,268.5,53,0,5.66,US,1708212108
112,whittier,33.9792,-118.0328,292.47,69,40,3.09,US,1708212407
113,yuzhno-kurilsk,44.0306,145.8556,269.47,67,24,5.36,RU,1708212408
114,bonthe,7.5264,-12.505,299.51,89,3,2.74,SL,1708212408
115,andalusia,31.3085,-86.4833,281.12,64,20,5.14,US,1708212409
116,aykhal,66.0,111.5,237.7,100,100,2.95,RU,1708212409
117,petropavlovsk-kamchatsky,53.0452,158.6483,266.48,23,100,13.0,RU,1708212410
118,kzyltu,53.6364,72.3414,245.15,100,95,3.57,KZ,1708212410
119,nemuro,43.3236,145.575,272.0,84,8,5.2,JP,1708212411
120,vilyuysk,63.7553,121.6247,231.57,97,62,2.81,RU,1708212411
121,dunedin,-45.8742,170.5036,293.33,56,31,2.47,NZ,1708212412
122,kavaratti,10.5669,72.642,300.75,75,72,3.29,IN,1708212412
123,port lincoln,-34.7333,135.8667,294.25,66,43,5.62,AU,1708212413
124,rocha,-34.4833,-54.3333,294.97,87,30,3.81,UY,1708212414
125,mata-utu,-13.2816,-176.1745,301.81,83,70,10.59,WF,1708212414
126,sungai penuh,-2.0833,101.3833,292.05,96,100,1.62,ID,1708212415
127,kodiak,57.79,-152.4072,278.88,87,100,5.66,US,1708212416
128,kanniyakumari,8.0833,77.5667,298.8,79,53,7.89,IN,1708212416
129,utrik,11.2278,169.8474,299.48,81,85,8.83,MH,1708212417
130,arteche,12.2645,125.4048,298.78,89,80,5.45,PH,1708212417
131,ghat,24.9647,10.1728,289.89,16,6,1.58,LY,1708212418
132,pemba,-12.974,40.5178,298.54,94,75,4.12,MZ,1708212418
133,krasnoshchekovo,51.6708,82.7289,252.3,88,100,6.22,RU,1708212419
134,horsham,51.064,-0.3272,284.62,83,75,5.14,GB,1708212419
135,kievka,50.2619,71.5514,239.95,100,59,0.8,KZ,1708212420
136,port saint john's,-31.6229,29.5448,293.87,89,100,1.22,ZA,1708212420
137,mana,5.6592,-53.7767,299.22,82,88,4.89,GF,1708212421
138,kingston,17.997,-76.7936,300.68,70,20,10.29,JM,1708212317
139,weno,7.4515,151.8468,302.12,79,40,4.12,FM,1708212422
140,goure,13.9835,10.2704,290.68,16,1,3.71,NE,1708212135
141,ilulissat,69.2167,-51.1,263.16,85,20,0.51,GL,1708212423
142,akdepe,42.0551,59.3788,268.2,29,100,7.6,TM,1708212424
143,kokpekty,48.75,82.4,240.84,100,99,0.64,KZ,1708212424
144,funadhoo,6.15,73.2667,301.04,73,99,2.39,MV,1708212425
145,vallegrande,-18.4897,-64.1069,291.02,87,100,1.91,BO,1708212426
146,happy valley-goose bay,53.3168,-60.3315,260.32,85,75,2.57,CA,1708212427
147,selfoss,63.9331,-20.9971,277.06,96,100,2.67,IS,1708212427
148,giado,31.9582,12.0203,287.75,29,100,8.76,LY,1708212428
149,whitehorse,60.7161,-135.0538,271.49,59,20,4.63,CA,1708212281
150,yerofey pavlovich,53.9667,121.9667,242.54,90,8,1.85,RU,1708212429
151,hailar,49.2,119.7,258.98,96,100,3.72,CN,1708212429
152,georgetown,5.4112,100.3354,300.12,89,20,1.54,MY,1708212290
153,sitka,57.0531,-135.33,284.09,43,100,3.6,US,1708212430
154,saint-philippe,-21.3585,55.7679,299.92,83,99,7.06,RE,1708212431
155,sinabang,2.4803,96.3801,300.57,80,99,0.86,ID,1708212431
156,east london,-33.0153,27.9116,292.58,66,73,3.1,ZA,1708212432
157,manado,1.487,124.8455,298.58,88,20,1.03,ID,1708212433
158,kavieng,-2.5744,150.7967,301.94,75,46,1.02,PG,1708212433
159,uturoa,-16.7333,-151.4333,301.33,83,93,8.31,PF,1708212434
160,hovd,48.0056,91.6419,252.66,58,31,1.72,MN,1708212434
161,gua musang,4.8823,101.9644,294.82,98,87,0.36,MY,1708212435
162,minas de marcona,-15.2119,-75.1103,293.12,81,83,6.29,PE,1708212436
163,tomaszow lubelski,50.4477,23.4162,277.59,82,90,4.75,PL,1708212437
164,dryden,49.7833,-92.7503,270.31,59,100,6.69,CA,1708212438
165,viedma,-40.8135,-62.9967,292.6,40,74,5.98,AR,1708212438
166,grand baie,-20.0182,57.5802,299.51,78,39,0.89,MU,1708212439
167,kuching,1.55,110.3333,300.94,94,20,1.03,MY,1708212439
168,sanctuary point,-35.1114,150.629,301.47,72,75,1.24,AU,1708212440
169,awjilah,29.1081,21.2869,286.95,49,92,2.88,LY,1708212440
170,shahrak,34.1074,64.3052,277.8,94,100,3.29,AF,1708212441
171,port alfred,-33.5906,26.891,288.81,82,0,0.45,ZA,1708212442
172,urangan,-25.3,152.9,301.59,68,14,4.92,AU,1708212442
173,nar'yan-mar,67.6713,53.087,259.88,93,100,12.52,RU,1708212443
174,rey bouba,8.6724,14.1786,297.69,15,90,0.93,CM,1708212443
175,lauro de freitas,-12.8944,-38.3272,302.16,84,40,5.66,BR,1708212445
176,celestun,20.8667,-90.4,298.04,80,21,6.65,MX,1708212445
177,isla mujeres,21.2311,-86.731,301.18,83,20,5.39,MX,1708212446
178,lihue,21.9789,-159.3672,297.73,48,0,7.72,US,1708212447
179,labuan bajo,-8.4964,119.8877,299.1,88,90,1.52,ID,1708212447
180,xilin hot,43.9667,116.0333,259.32,92,100,3.55,CN,1708212449
181,shalqar,47.8333,59.6,258.45,75,100,6.55,KZ,1708212449
182,vadso,70.0744,29.7487,270.64,74,20,4.63,NO,1708212450
183,maua,-23.6678,-46.4614,296.13,89,65,2.41,BR,1708212450
184,bagrationovsk,54.3871,20.6437,277.9,81,97,4.68,RU,1708212451
185,acapulco de juarez,16.8634,-99.8901,300.05,61,100,3.09,MX,1708212451
186,mhamid,29.82,-5.72,290.71,26,12,7.84,MA,1708212452
187,vung tau,10.346,107.0843,297.76,83,87,7.27,VN,1708212452
188,prince rupert,54.3161,-130.3201,282.2,61,100,2.57,CA,1708212453
189,sept-iles,50.2001,-66.3821,265.15,53,100,4.63,CA,1708212454
190,fort mcmurray,56.7268,-111.381,276.88,32,0,1.03,CA,1708211935
191,bozhou,33.8772,115.7703,286.98,89,100,4.39,CN,1708212455
192,kidal,18.4411,1.4078,295.7,11,33,4.06,ML,1708212455
193,salahonda,2.1019,-78.7217,300.51,87,100,3.81,CO,1708212456
194,dongxing,45.3667,130.8,266.72,86,32,1.78,CN,1708212457
195,bahia de caraquez,-0.6,-80.4167,303.25,89,86,4.56,EC,1708212458
196,nagqu,31.5,92.0,269.05,38,100,8.65,CN,1708212458
197,shambu,9.5667,37.1,288.1,53,87,0.26,ET,1708212459
198,san julian,21.0167,-102.1667,287.99,38,78,4.82,MX,1708212459
199,boundiali,9.5217,-6.4869,299.2,13,10,0.51,CI,1708212460
200,guanica,17.9716,-66.908,301.14,57,5,5.65,PR,1708212460
201,phongsali,21.6833,102.1058,280.77,64,0,0.62,LA,1708212461
202,kone,-21.0595,164.8658,302.09,61,85,2.33,NC,1708212462
203,namtsy,62.7161,129.6658,239.19,90,100,3.4,RU,1708212462
204,raja,8.4596,25.678,297.93,22,96,1.72,SS,1708212463
205,susuman,62.7833,148.1667,229.25,100,81,0.45,RU,1708212464
206,manaure balcon del cesar,10.3928,-73.0325,300.81,64,79,1.97,CO,1708212464
207,ushuaia,-54.8,-68.3,283.96,76,20,11.32,AR,1708212465
208,yellowknife,62.456,-114.3525,259.49,87,75,4.12,CA,1708212465
209,agat village,13.3886,144.6585,301.67,81,75,5.14,GU,1708212466
210,tangalle,6.024,80.7911,297.39,84,91,4.36,LK,1708212466
211,ta`u,-14.2336,-169.5144,300.83,86,99,9.89,AS,1708212467
212,farah,32.5,62.5,286.55,67,100,0.9,AF,1708212467
213,taro,-8.3862,115.28,296.15,92,76,0.22,ID,1708212468
214,constitucion,-35.3333,-72.4167,292.79,59,2,7.45,CL,1708212468
215,thompson,55.7435,-97.8558,264.24,79,75,7.2,CA,1708212469
216,akureyri,65.6835,-18.0878,275.11,80,75,5.14,IS,1708212470
217,la passe,45.5549,-0.8967,280.36,81,100,0.85,FR,1708212470
218,flying fish cove,-10.4217,105.6791,299.97,89,40,2.06,CX,1708212471
219,alice springs,-23.7,133.8833,302.9,52,93,7.72,AU,1708212425
220,romblon,12.5751,122.2708,298.77,79,58,6.13,PH,1708212472
221,ostroleka,53.0862,21.5757,275.89,68,91,5.78,PL,1708212472
222,zahedan,29.4963,60.8629,293.1,40,20,7.2,IR,1708212473
223,bani walid,31.7566,13.9942,287.75,67,100,4.53,LY,1708212473
224,st. john's,47.5649,-52.7093,271.36,93,100,14.4,CA,1708212302
225,al jawf,29.5,38.75,283.26,51,1,3.05,SA,1708212474
226,sao goncalo do amarante,-3.6072,-38.9683,302.11,90,36,2.18,BR,1708212475
227,tulun,54.5611,100.5792,244.49,100,100,1.3,RU,1708212476
228,hermanus,-34.4187,19.2345,286.37,70,6,4.91,ZA,1708212476
229,ancud,-41.8697,-73.8203,288.76,66,43,4.35,CL,1708212477
230,rongelap,11.1635,166.8941,299.6,78,99,8.66,MH,1708212478
231,chingirlau,51.095,54.0814,259.16,84,100,3.88,KZ,1708212478
232,paradip garh,20.3167,86.6167,295.82,85,0,2.33,IN,1708212479
233,belmonte,-15.8631,-38.8828,299.46,89,99,5.21,BR,1708212479
234,saldanha,-33.0117,17.9442,289.18,79,0,7.3,ZA,1708212480
235,lorengau,-2.0226,147.2712,302.4,74,28,1.43,PG,1708212481
236,richards bay,-28.783,32.0377,295.61,91,100,5.11,ZA,1708212481
237,gadzhiyevo,69.2551,33.3362,270.85,92,100,18.34,RU,1708212482
238,anadyr,64.75,177.4833,262.43,67,100,10.0,RU,1708212482
239,mil'kovo,55.6078,37.7956,271.42,94,100,6.36,RU,1708212483
240,vorkuta,67.5,64.0,249.31,80,80,2.85,RU,1708212483
241,catanduva,-21.1378,-48.9728,298.39,64,8,3.29,BR,1708212484
242,badger,64.8,-147.5333,264.29,76,40,0.0,US,1708212485
243,codajas,-3.8367,-62.0569,300.6,77,93,1.49,BR,1708212485
244,ca mau,9.1769,105.15,296.84,91,94,2.33,VN,1708212486
245,nizhneudinsk,54.9076,99.0276,246.41,97,100,0.73,RU,1708212486
246,kenai,60.5544,-151.2583,273.23,61,100,7.72,US,1708212487
247,mombetsu,44.3525,143.3525,270.85,72,24,2.89,JP,1708212487
248,porto novo,6.4965,2.6036,302.05,81,57,3.14,BJ,1708212488
249,burang,30.25,81.1667,264.36,66,4,0.51,CN,1708212488
250,lesnoy,57.6198,63.0784,249.69,100,30,1.75,RU,1708212489
251,el granada,37.5027,-122.4694,288.05,89,100,12.35,US,1708212490
252,bereeda,11.8704,51.0579,297.05,79,7,1.13,SO,1708212490
253,pisco,-13.7,-76.2167,298.18,78,0,8.23,PE,1708212491
254,vila velha,-20.3297,-40.2925,299.23,87,20,3.09,BR,1708212491
255,pagar alam,-4.0167,103.2667,293.83,99,100,0.29,ID,1708212492
256,goundam,16.4145,-3.6708,297.61,10,25,4.16,ML,1708212492
257,arak,34.0917,49.6892,276.05,65,25,3.27,IR,1708212493
258,protaras,35.0125,34.0583,286.48,80,10,2.24,CY,1708212493
259,vilhena,-12.7406,-60.1458,298.27,94,40,1.03,BR,1708212494
260,munuf,30.4658,30.9316,283.99,87,4,1.5,EG,1708212495
261,sandnessjoen,66.0217,12.6316,271.44,98,96,2.07,NO,1708212495
262,sola,-13.8833,167.55,301.21,78,83,2.44,VU,1708212496
263,pitanga,-24.7572,-51.7614,295.76,70,86,1.45,BR,1708212496
264,alofi,-19.0595,-169.9187,303.09,58,99,7.72,NU,1708212497
265,talara,-4.5772,-81.2719,300.57,78,100,3.6,PE,1708212497
266,atasu,48.6814,71.6433,243.8,97,6,3.9,KZ,1708212498
267,qashyr,53.0675,76.1036,249.53,99,99,3.22,KZ,1708212499
268,buncrana,55.1333,-7.45,283.59,88,81,4.73,IE,1708212499
269,saint-joseph,-21.3667,55.6167,299.36,81,96,7.17,RE,1708212500
270,nieuw amsterdam,5.8833,-55.0833,300.24,83,20,1.03,SR,1708212500
271,walvis bay,-22.9575,14.5053,290.15,84,8,3.28,NA,1708212501
272,cabedelo,-6.9811,-34.8339,301.52,81,13,3.84,BR,1708212501
273,jerome,42.7241,-114.5186,277.86,57,0,9.26,US,1708212502
274,zacatlan,19.9333,-97.9667,285.18,79,100,0.41,MX,1708212503
275,illizi,26.4833,8.4667,291.04,19,95,1.29,DZ,1708212503
276,kruisfontein,-34.0033,24.7314,286.42,87,0,2.56,ZA,1708212504
277,santa rosa,14.3122,121.1114,299.27,76,14,4.22,PH,1708212235
278,aktobe,50.2797,57.2072,258.2,61,0,3.0,KZ,1708212506
279,jiangzi,28.95,89.6333,264.74,77,17,2.83,CN,1708212506
280,mishelevka,52.8575,103.1719,241.9,100,99,1.52,RU,1708212507
281,siluko,6.5386,5.1609,298.67,93,57,0.89,NG,1708212507
282,keflavik,64.0049,-22.5624,279.1,93,75,4.63,IS,1708212508
283,kirakira,-10.4544,161.9205,303.35,74,100,2.62,SB,1708212508
284,lamu,-2.2717,40.902,299.41,87,42,4.19,KE,1708212509
285,acarau,-2.8856,-40.12,300.05,82,74,4.28,BR,1708212395
286,villa ojo de agua,-29.5,-63.6938,300.01,46,1,3.72,AR,1708212510
287,baxter,46.3433,-94.2867,276.05,38,0,8.23,US,1708212511
288,lampazos de naranjo,27.0167,-100.5167,284.09,51,100,4.26,MX,1708212511
289,okha,53.5739,142.9478,260.18,96,100,1.49,RU,1708212512
290,port elizabeth,-33.918,25.5701,288.32,80,0,0.89,ZA,1708212512
291,robertsport,6.7533,-11.3686,300.62,91,14,4.28,LR,1708212513
292,as sulayyil,20.4607,45.5779,296.29,33,33,2.77,SA,1708212513
293,plettenberg bay,-34.0527,23.3716,288.02,76,0,1.9,ZA,1708212514
294,tibati,6.4667,12.6333,297.26,21,95,2.08,CM,1708212514
295,petauke,-14.2426,31.3253,293.14,91,95,1.52,ZM,1708212515
296,la ronge,55.1001,-105.2842,273.29,43,20,5.14,CA,1708212515
297,lagunillas,10.1301,-71.2595,303.78,59,33,1.79,VE,1708212516
298,pooler,32.1155,-81.2471,289.19,65,100,5.66,US,1708212516
299,kirovsk,48.6375,38.6428,268.93,84,20,1.56,UA,1708212517
300,north bay,46.3168,-79.4663,260.16,51,75,1.54,CA,1708212518
301,olonkinbyen,70.9221,-8.7187,270.51,73,63,6.56,SJ,1708212518
302,buka,40.8108,69.1986,273.27,95,100,2.67,UZ,1708212519
303,ifrane,33.3333,-5.25,278.91,52,3,3.12,MA,1708212519
304,nishinoomote,30.7333,131.0,287.46,82,75,1.54,JP,1708212520
305,college,64.8569,-147.8028,264.33,76,20,0.0,US,1708212520
306,san luis de la loma,17.2706,-100.8939,298.11,63,100,2.61,MX,1708212521
307,hilo,19.7297,-155.09,297.75,72,75,6.69,US,1708212521
308,malvan,16.0667,73.4667,296.51,58,8,2.13,IN,1708212522
309,isangel,-19.55,169.2667,303.21,70,20,5.14,VU,1708212522
310,vemalwada,18.4667,78.8833,293.58,37,2,2.0,IN,1708212523
311,padangsidempuan,1.3667,99.2667,295.08,99,96,1.47,ID,1708212523
312,praia da vitoria,38.7333,-27.0667,289.29,82,20,4.21,PT,1708212524
313,palekh,56.8028,41.8572,265.06,91,100,6.02,RU,1708212524
314,cannonvale,-20.2833,148.7,299.81,73,91,7.93,AU,1708212525
315,nouadhibou,20.931,-17.0347,294.14,73,0,7.72,MR,1708212525
316,oranjemund,-28.55,16.4333,289.57,89,0,4.07,NA,1708212526
317,ayr,55.4627,-4.6339,284.44,100,75,7.2,GB,1708212527
318,igrim,63.1906,64.4162,247.78,97,39,2.65,RU,1708212527
319,mount gambier,-37.8333,140.7667,291.7,67,61,2.94,AU,1708212528
320,kitimat,54.0524,-128.6534,278.53,50,96,2.24,CA,1708212528
321,nuku'alofa,-21.1333,-175.2,302.34,65,20,7.2,TO,1708212529
322,arkhangel'sk,64.5401,40.5433,268.21,100,100,4.0,RU,1708212529
323,queenstown,-31.8976,26.8753,286.56,84,67,1.93,ZA,1708212372
324,sur,22.5667,59.5289,296.99,55,1,2.69,OM,1708212530
325,mar del plata,-38.0023,-57.5575,296.53,86,0,7.15,AR,1708212531
326,karystos,38.0133,24.4161,285.61,78,26,2.68,GR,1708212532
327,klichaw,53.4928,29.3352,276.14,89,99,5.38,BY,1708212532
328,revda,56.801,59.9303,251.4,95,63,1.75,RU,1708212533
329,colonia,50.9333,6.95,283.12,86,20,0.51,DE,1708212534
330,sarkand,45.41,79.9186,252.36,65,1,2.63,KZ,1708212534
331,marka,1.7159,44.7717,299.61,82,67,7.29,SO,1708212535
332,tofol,5.3248,163.0078,301.14,77,46,5.86,FM,1708212535
333,nova sintra,14.8667,-24.7167,294.08,79,4,10.79,CV,1708212536
334,kantunilkin,21.0917,-87.45,300.81,64,35,3.84,MX,1708212536
335,tidjikja,18.5564,-11.4271,299.17,8,98,4.8,MR,1708212537
336,caleta de carquin,-11.0925,-77.6267,298.12,82,48,4.24,PE,1708212538
337,la'ie,21.6477,-157.9253,299.13,50,1,3.13,US,1708212538
338,leava,-14.3,-178.1667,301.85,84,95,8.12,WF,1708212539
339,klaksvik,62.2266,-6.589,280.66,96,100,10.37,FO,1708212539
340,khilchipur,24.0333,76.5667,293.16,37,13,1.72,IN,1708212540
341,wabag,-5.4781,143.7021,291.06,89,80,0.29,PG,1708212541
342,laguna,38.421,-121.4238,288.96,79,100,11.32,US,1708212541
343,cooma,-36.2333,149.1333,297.99,46,84,1.85,AU,1708212542
344,hiratacho,35.4333,132.8167,276.16,100,20,1.03,JP,1708212542
345,san patricio,28.017,-97.5169,282.12,64,100,7.49,US,1708212543
346,isiolo,0.3546,37.5822,296.09,58,57,1.92,KE,1708212543
347,muynoq,43.7683,59.0214,271.0,48,100,11.34,UZ,1708212544
348,nizhniy odes,63.6445,54.856,257.86,89,100,7.06,RU,1708212544
349,yambio,4.5721,28.3955,296.91,29,49,2.13,SS,1708212545
350,linhares,-19.3911,-40.0722,297.4,93,62,1.37,BR,1708212279
351,olinda,-8.0089,-34.8553,302.0,84,75,3.6,BR,1708212254
352,bovalino,38.149,16.174,284.43,80,0,1.61,IT,1708212547
353,vorgashor,67.5833,63.95,249.54,79,80,3.16,RU,1708212547
354,serres,41.0856,23.5497,283.93,91,6,0.68,GR,1708212548
355,fortuna,40.5982,-124.1573,285.74,93,100,2.68,US,1708212548
356,malmberget,67.1753,20.6549,259.46,85,31,3.09,SE,1708212549
357,macapa,0.0389,-51.0664,301.14,83,0,5.14,BR,1708212550
358,zeya,53.75,127.2667,248.42,82,81,2.45,RU,1708212550
359,sarupathar,26.1984,93.8094,288.98,67,44,1.08,IN,1708212551
360,heunghae,36.1125,129.3522,277.96,63,2,2.68,KR,1708212551
361,karratha,-20.7377,116.8463,302.21,64,14,3.44,AU,1708212552
362,amberieu-en-bugey,45.9589,5.3432,283.14,96,47,2.03,FR,1708212552
363,starkville,33.4504,-88.8184,278.84,48,0,5.66,US,1708212553
364,soto la marina,23.7667,-98.2167,285.49,87,100,6.33,MX,1708212554
365,devils lake,48.1128,-98.8651,274.14,53,0,9.77,US,1708212330
366,pundong,-7.9522,110.3486,298.32,89,55,0.92,ID,1708212555
367,krasnokamsk,58.0802,55.7541,253.24,100,81,1.43,RU,1708212556
368,kailua-kona,19.6406,-155.9956,302.13,56,40,8.75,US,1708212557
369,jutai,-5.1833,-68.9,298.14,96,97,0.74,BR,1708212558
370,kodinsk,58.6881,99.1844,238.83,100,99,0.39,RU,1708212558
371,pudasjarvi,65.3833,26.9167,266.22,82,97,6.5,FI,1708212559
372,maridi,4.9158,29.4742,296.86,28,45,2.04,SS,1708212559
373,coronel dorrego,-38.7187,-61.2873,297.98,53,0,6.04,AR,1708212560
374,lesozavodsk,45.4794,133.4244,266.64,89,56,2.85,RU,1708212561
375,kibre mengist,5.8833,38.9833,288.43,59,31,1.15,ET,1708212561
376,titao,13.7667,-2.0667,298.48,11,90,4.19,BF,1708212562
377,dudinka,69.4058,86.1778,251.27,90,100,4.92,RU,1708212562
378,komsomolets,53.7453,62.0708,256.18,96,100,1.98,KZ,1708212563
379,laurel,39.0993,-76.8483,275.03,48,0,4.63,US,1708212563
380,santa ana,33.7456,-117.8678,292.95,65,75,3.6,US,1708212487
381,heroica caborca,30.7167,-112.15,297.09,22,24,4.07,MX,1708212564
382,sibu,2.3,111.8167,298.32,100,40,0.0,MY,1708212565
383,ishpeming,46.4885,-87.6676,268.44,72,100,5.09,US,1708212565
384,taoudenni,22.6783,-3.9836,299.21,13,0,4.72,ML,1708212566
385,verkhotur'ye,58.8627,60.8054,248.94,99,32,2.23,RU,1708212567
386,carhuaz,-9.2819,-77.6447,292.22,76,77,1.6,PE,1708212567
387,gamay,12.3854,125.2979,298.46,92,66,4.79,PH,1708212568
388,ciudad lazaro cardenas,17.9583,-102.2,298.14,66,76,2.92,MX,1708212568
389,san juan,-31.5375,-68.5364,307.71,27,11,9.06,AR,1708212569
390,conde,-7.2597,-34.9075,300.85,94,40,2.57,BR,1708212569
391,egersund,58.4513,5.9997,274.47,86,100,3.65,NO,1708212570
392,kani keli,-12.9536,45.1033,300.74,81,99,4.22,YT,1708212570
393,medina,24.4686,39.6142,289.39,20,0,2.06,SA,1708212571
394,constantia,44.1833,28.65,276.53,84,5,0.92,RO,1708212572
395,al hasakah,36.5024,40.7477,284.06,82,87,1.14,SY,1708212572
396,golyshmanovo,56.3979,68.3728,244.06,100,98,1.32,RU,1708212573
397,mariental,-24.6333,17.9667,296.55,15,40,2.12,NA,1708212573
398,mossel bay,-34.1831,22.146,290.5,68,2,2.63,ZA,1708212575
399,sinop,41.7711,34.8709,276.67,98,100,1.31,TR,1708212575
400,malmyzh,56.5205,50.6818,261.1,90,100,6.04,RU,1708212576
401,mirnyy,62.5353,113.9611,236.61,66,83,5.81,RU,1708212576
402,usogorsk,63.4106,48.6872,260.74,89,100,7.44,RU,1708212577
403,copoya,16.7167,-93.0833,302.2,33,75,2.06,MX,1708212578
404,alaghsas,17.0187,8.0168,291.63,20,0,4.83,NE,1708212578
405,nikol'sk,53.7189,46.0712,260.82,93,100,4.75,RU,1708212579
406,naha,26.2125,127.6811,293.7,74,40,3.09,JP,1708212579
407,saipan,15.1355,145.701,299.54,89,100,5.66,MP,1708212580
408,al mijlad,11.0333,27.7333,297.39,16,75,6.48,SD,1708212580
409,kuta,-8.7233,115.1723,300.12,88,75,0.51,ID,1708212581
410,nabire,-3.3667,135.4833,300.23,81,80,0.91,ID,1708212582
411,sisimiut,66.9395,-53.6735,262.19,87,76,5.56,GL,1708212582
412,amga,60.8953,131.9608,245.24,97,100,2.77,RU,1708212583
413,fortaleza,-3.7227,-38.5247,302.22,79,20,3.6,BR,1708212299
414,hasaki,35.7333,140.8333,285.53,60,100,4.5,JP,1708212584
415,gopalpur,19.2667,84.9167,295.14,74,0,4.31,IN,1708212584
416,porbandar,21.6422,69.6093,295.3,51,16,4.45,IN,1708212585
417,arraial do cabo,-22.9661,-42.0278,298.21,90,0,6.07,BR,1708212585
418,kapit,2.0167,112.9333,296.59,100,83,0.39,MY,1708212586
419,kununurra,-15.7667,128.7333,303.14,70,93,1.54,AU,1708212586
420,nova xavantina,-14.6667,-52.35,298.73,82,62,1.53,BR,1708212587
421,pocone,-16.2567,-56.6228,303.74,52,66,0.97,BR,1708212588
422,jishu,44.3167,126.8,269.95,79,8,2.94,CN,1708212588
423,la tuque,47.4334,-72.7824,260.29,72,100,3.6,CA,1708212589
424,gaalkacyo,6.7697,47.4308,296.07,81,59,5.48,SO,1708212589
425,puerto aysen,-45.4,-72.7,288.35,67,86,1.99,CL,1708212590
426,tual,-5.6667,132.75,301.69,78,95,3.13,ID,1708212590
427,sierra grande,-41.606,-65.3557,293.7,33,1,5.94,AR,1708212591
428,trinidad,-14.8333,-64.9,301.14,83,75,2.06,BO,1708212592
429,korla,41.7597,86.1469,265.1,33,41,1.79,CN,1708212592
430,manta,-0.95,-80.7333,303.03,83,75,6.71,EC,1708212593
431,sao gabriel da cachoeira,-0.1303,-67.0892,301.18,71,82,0.96,BR,1708212497
432,peterborough,52.5736,-0.2478,285.33,100,100,7.2,GB,1708212358
433,essaouira,31.5125,-9.77,292.87,59,74,9.26,MA,1708212595
434,mangatarem,15.7874,120.2921,295.82,86,77,2.97,PH,1708212596
435,barabai,-2.5833,115.3833,297.2,91,86,0.85,ID,1708212597
436,le lavandou,43.137,6.366,287.46,81,0,1.54,FR,1708212598
437,ariquemes,-9.9133,-63.0408,297.75,96,84,0.83,BR,1708212598
438,parauapebas,-6.0675,-49.9022,300.14,88,0,0.0,BR,1708212299
439,palikir - national government center,6.9248,158.1611,302.62,70,75,5.14,FM,1708212600
440,punta del este,-34.9667,-54.95,297.21,89,0,4.02,UY,1708212600
441,goris,41.9842,44.1158,276.9,98,100,0.33,GE,1708212601
442,howard springs,-12.497,131.047,302.49,86,100,4.7,AU,1708212602
443,phichit,16.25,100.4167,298.77,79,99,2.25,TH,1708212603
444,novaya mayna,54.15,49.75,262.52,88,100,5.03,RU,1708212605
445,beibei,29.8256,106.4339,286.41,77,17,0.31,CN,1708212556
446,danshui,22.7984,114.4672,292.74,85,88,2.11,CN,1708212607
447,port isabel,26.0734,-97.2086,281.49,86,100,8.75,US,1708212608
448,toliara,-23.35,43.6667,299.16,79,0,4.58,MG,1708212609
449,fuyuan,46.4333,127.0833,272.94,87,73,5.89,CN,1708212610
450,bandarbeyla,9.4942,50.8122,298.13,71,49,5.12,SO,1708212610
451,yaren,-0.5472,166.916,302.13,79,73,5.47,NR,1708212611
452,paraiba do sul,-22.1619,-43.2928,295.34,96,67,1.59,BR,1708212612
453,murzuq,25.9155,13.9184,287.02,26,3,5.18,LY,1708212613
454,at taj,24.2049,23.2857,284.54,38,0,3.87,LY,1708212601
455,midvagur,62.0511,-7.1939,280.61,93,100,5.66,FO,1708212615
456,manali,13.1667,80.2667,297.2,89,15,0.22,IN,1708212615
457,elverum,60.8819,11.5623,265.75,97,91,0.84,NO,1708212616
458,altai,46.3722,96.2583,242.78,86,37,1.25,MN,1708212617
459,kongolo,-5.3833,27.0,294.97,93,99,0.19,CD,1708212618
460,berdigestyakh,62.0989,126.6992,240.02,93,100,2.91,RU,1708212619
461,gardnerville ranchos,38.8882,-119.7413,281.62,56,20,5.81,US,1708212620
462,chonchi,-42.6128,-73.8092,289.99,76,54,1.38,CL,1708212621
463,maumere,-8.6199,122.2111,301.29,77,98,0.62,ID,1708212622
464,blagoveshchenka,52.8333,79.8667,251.57,99,100,2.35,RU,1708212624
465,priozersk,61.0393,30.1291,271.45,29,100,6.29,RU,1708212625
466,rio grande,-32.035,-52.0986,299.21,94,10,6.56,BR,1708212606
467,monze,-16.2833,27.4833,295.91,48,84,0.53,ZM,1708212626
468,camrose,53.0168,-112.8353,274.89,82,6,1.5,CA,1708212627
469,dahab,28.501,34.5134,290.0,43,0,3.71,EG,1708212628
470,juan aldama,24.2908,-103.3944,283.35,64,64,5.35,MX,1708212629
471,san marcos,33.1434,-117.1661,291.84,77,100,3.09,US,1708212630
472,prairie du chien,43.0517,-91.1412,274.2,43,0,6.17,US,1708212631
473,remire-montjoly,4.9167,-52.2667,300.17,78,40,6.17,GF,1708212632
474,poronaysk,49.2167,143.1167,275.27,89,100,6.05,RU,1708212632
475,zaozersk,69.4005,32.4476,270.32,81,100,11.22,RU,1708212633
476,siwa oasis,29.2041,25.5195,286.87,57,49,3.6,EG,1708212634
477,haiku-pauwela,20.9219,-156.3051,297.16,61,75,7.72,US,1708212635
478,diego de almagro,-26.3667,-70.05,295.38,51,44,1.83,CL,1708212636
479,lilongwe,-13.9669,33.7873,293.81,89,100,0.07,MW,1708212637
480,saint joseph,39.7686,-94.8466,273.46,56,0,6.17,US,1708212637
481,mehtar lam,34.6714,70.2094,285.35,60,100,3.52,AF,1708212638
482,mgandu,-5.95,34.1333,290.21,91,97,1.11,TZ,1708212639
483,palmer,42.1584,-72.3287,271.9,50,75,6.17,US,1708212640
484,watsa,3.0372,29.5355,294.58,50,71,0.82,CD,1708212640
485,cavelossim,15.1726,73.9419,296.27,72,11,1.98,IN,1708212641
486,turbat,26.0023,63.044,292.84,66,6,1.34,PK,1708212641
487,bage,-31.3314,-54.1069,296.03,88,0,3.09,BR,1708212642
488,novyy urengoy,66.0833,76.6333,245.86,93,83,3.39,RU,1708212643
489,mugia,43.1041,-9.2179,285.32,87,100,2.6,ES,1708212643
490,puerto baquerizo moreno,-0.9,-89.6,300.14,83,61,3.48,EC,1708212644
491,togur,58.3631,82.8265,246.56,100,96,1.34,RU,1708212645
492,nuevo cuscatlan,13.6486,-89.2653,298.35,85,39,1.34,SV,1708212646
493,huntingburg,38.2989,-86.955,267.8,58,0,3.09,US,1708212454
494,smirnovo,54.5125,69.4222,240.12,100,93,2.12,KZ,1708212647
495,mejit,10.2753,170.8646,299.96,82,45,8.61,MH,1708212648
496,beitbridge,-22.2167,30.0,300.49,52,0,10.22,ZW,1708212648
497,jolo,6.05,121.0167,299.51,79,32,2.11,PH,1708212649
498,narrabri,-30.3167,149.7833,303.03,44,1,2.64,AU,1708212650
499,lobito,-12.3481,13.5456,300.56,85,98,2.82,AO,1708212650
500,ulladulla,-35.35,150.4667,298.46,71,75,2.52,AU,1708212651
501,salalah,17.0151,54.0924,296.2,73,20,1.54,OM,1708212652
502,leon,21.1167,-101.6667,291.18,42,74,4.84,MX,1708212652
503,san lawrenz,36.0553,14.204,285.82,69,100,4.85,MT,1708212653
504,igarka,67.4667,86.5833,244.17,93,100,3.09,RU,1708212654
505,port blair,11.6667,92.75,297.17,94,37,1.03,IN,1708212654
506,lepsy,46.235,78.9456,250.21,85,5,4.82,KZ,1708212655
507,ubari,26.5921,12.7805,288.36,22,90,6.07,LY,1708212656
508,bude,50.8243,-4.5413,285.93,90,100,1.34,GB,1708212656
509,kyzyl-mazhalyk,51.1333,90.6,245.32,87,100,0.45,RU,1708212657
510,cefalu,38.0386,14.0229,286.78,82,3,0.89,IT,1708212657
511,mermoz boabab,14.7065,-17.4758,298.46,73,0,3.09,SN,1708212658
512,monrovia,6.3005,-10.7969,299.02,87,55,3.15,LR,1708212649
513,dombarovskiy,50.7587,59.5386,252.59,87,100,2.24,RU,1708212659
514,upington,-28.4478,21.2561,294.36,14,0,0.0,ZA,1708212660
515,sona,45.4388,10.8255,282.77,100,14,1.54,IT,1708212660
516,novodvinsk,64.4165,40.8122,268.01,96,100,6.8,RU,1708212661
517,maragogi,-9.0122,-35.2225,300.75,83,51,4.34,BR,1708212662
518,bikenibeu village,1.3673,173.1241,303.13,79,75,6.17,KI,1708212662
519,zhangjiajie,29.1294,110.4783,289.57,92,100,1.06,CN,1708212663
520,balaipungut,1.05,101.2833,296.81,97,100,1.08,ID,1708212663
521,west end,26.6833,-78.9667,297.14,83,100,7.37,BS,1708212664
522,jackson,42.4165,-122.8345,285.95,75,100,3.13,US,1708212450
523,malabrigo,-29.3464,-59.9696,298.89,53,1,2.26,AR,1708212665
524,ghanzi,-21.5667,21.7833,297.41,55,95,2.65,BW,1708212666
525,ilomantsi,62.6716,30.9328,267.42,92,99,5.31,FI,1708212671
526,gannan,47.9147,123.5031,263.45,92,100,7.33,CN,1708212671
527,jales,-20.2689,-50.5458,298.38,71,6,1.12,BR,1708212672
528,bardai,11.65,7.2333,292.08,18,54,4.11,NG,1708212673
529,sungailiat,-1.85,106.1333,299.84,84,98,2.48,ID,1708212673
530,baybay,10.6833,124.8333,299.57,83,98,3.07,PH,1708212674
531,fort bragg,35.139,-79.006,282.9,40,0,2.06,US,1708212675
532,ola,59.5833,151.2833,249.96,71,63,2.25,RU,1708212675
533,labasa,-16.4167,179.3833,301.77,81,100,3.71,FJ,1708212677
534,chechelnyk,48.8353,26.6484,279.95,94,98,5.27,UA,1708212677
535,armacao de buzios,-22.7469,-41.8817,300.18,93,2,4.83,BR,1708212678
536,lata,40.1629,-8.3327,283.75,87,75,1.51,PT,1708212678
537,ramanuj ganj,23.8,83.7,286.73,38,0,1.45,IN,1708212679
538,boise,43.6135,-116.2035,282.01,35,0,7.72,US,1708212617
539,santa terezinha,-29.9002,-50.0904,297.02,91,18,4.93,BR,1708212681
540,saint-francois,46.4154,3.9054,280.84,82,100,1.03,FR,1708212681
541,la junta,37.985,-103.5438,275.41,61,0,3.09,US,1708212682
542,san jose de feliciano,-30.3845,-58.7517,297.27,68,20,3.48,AR,1708212683
543,buala,-8.145,159.5921,303.25,70,65,3.26,SB,1708212684
544,el nido,11.1858,119.3956,299.36,79,14,6.28,PH,1708212684
545,kingscliff,-28.2667,153.5667,302.44,83,75,2.06,AU,1708212685
546,yarega,63.4354,53.5765,258.08,89,100,7.11,RU,1708212686
547,hassi messaoud,31.6804,6.0729,288.07,47,0,2.06,DZ,1708212686
548,sao jose da coroa grande,-8.8978,-35.1478,300.6,84,46,4.12,BR,1708212687
549,lisakovsk,52.5369,62.4936,253.33,92,97,2.33,KZ,1708212688
550,brookings,44.3114,-96.7984,270.15,67,0,8.75,US,1708212689
551,komsomol'skiy,43.9783,46.6985,271.83,67,52,3.6,RU,1708212690
552,broome,42.2506,-75.833,267.98,80,20,3.6,US,1708212691
553,shira,54.4911,89.9531,248.2,87,100,1.18,RU,1708212691
554,puducherry,11.9333,79.8167,295.81,81,21,2.71,IN,1708212692
555,yangiobod,41.1192,70.0941,272.89,81,100,2.27,UZ,1708212693
556,kazanskoye,55.6448,69.235,240.96,100,100,1.27,RU,1708212693
557,darwin,-12.4611,130.8418,303.65,84,75,3.6,AU,1708212648
558,xai-xai,-25.0519,33.6442,299.06,84,26,4.14,MZ,1708212694
559,atar,20.5169,-13.0499,298.66,12,19,3.0,MR,1708212695
560,walla walla,46.0646,-118.343,278.96,86,75,2.06,US,1708212696
561,saint-germain-du-puy,47.1,2.4833,278.3,87,0,1.54,FR,1708212696
562,codrington,-38.2667,141.9667,293.79,55,38,4.53,AU,1708212697
563,kuala belait,4.5833,114.1833,297.24,87,49,1.63,BN,1708212698
564,serafimovich,49.5786,42.736,266.83,91,59,3.13,RU,1708212698
565,livingston,55.9029,-3.5226,284.32,89,100,3.6,GB,1708212699
566,monzon,41.9108,0.1941,281.35,76,3,0.31,ES,1708212700
567,bayville,40.9106,-73.5621,273.87,55,54,4.47,US,1708212700
568,nueva helvecia,-34.3,-57.2333,297.92,60,82,3.81,UY,1708212701
569,lucapa,-8.4192,20.7447,292.76,95,100,1.15,AO,1708212701
570,urucurituba,-2.6833,-57.6667,300.77,76,94,0.52,BR,1708212702
571,menaka,15.9182,2.4022,295.66,13,0,4.13,ML,1708212702
572,acajutla,13.5928,-89.8275,301.11,70,32,4.35,SV,1708212703
573,kalmunai,7.4167,81.8167,298.18,81,71,3.43,LK,1708212704
574,kyshtovka,56.555,76.6271,244.45,100,76,2.24,RU,1708212704
575,escarcega,18.6089,-90.7454,301.86,49,32,3.14,MX,1708212705
576,media luna,20.1419,-77.435,298.04,75,0,4.99,CU,1708212705
577,sumenep,-7.0167,113.8667,300.51,80,99,1.34,ID,1708212706
578,guerrero negro,27.9769,-114.0611,291.59,68,8,6.45,MX,1708212497
